[
  {
    "id": "marina-de-empuriabrava",
    "name": "Marina de Empuriabrava",
    "region_id": "cat",
    "area_id": 1,
    "lat": 42.246111,
    "lon": 3.135278,
    "description": "Puerto en Costa Brava, Cataluña.",
    "image_url": ""
  },
  {
    "id": "marina-de-los-canales-de-santa-margarida",
    "name": "Marina de los Canales de Santa Margarida",
    "region_id": "cat",
    "area_id": 1,
    "lat": 42.26,
    "lon": 3.15,
    "description": "Puerto en Costa Brava, Cataluña.",
    "image_url": ""
  },
  {
    "id": "port-daro",
    "name": "Port d'Aro",
    "region_id": "cat",
    "area_id": 1,
    "lat": 41.817,
    "lon": 3.066,
    "description": "Puerto en Costa Brava, Cataluña.",
    "image_url": ""
  },
  {
    "id": "port-forum",
    "name": "Port Fòrum",
    "region_id": "cat",
    "area_id": 2,
    "lat": 41.409167,
    "lon": 2.229444,
    "description": "Puerto en Barcelona y alrededores, Cataluña.",
    "image_url": ""
  },
  {
    "id": "port-olimpic",
    "name": "Port Olímpic",
    "region_id": "cat",
    "area_id": 2,
    "lat": 41.389722,
    "lon": 2.191944,
    "description": "Puerto en Barcelona y alrededores, Cataluña.",
    "image_url": ""
  },
  {
    "id": "port-ginesta",
    "name": "Port Ginesta",
    "region_id": "cat",
    "area_id": 2,
    "lat": 41.272222,
    "lon": 1.955278,
    "description": "Puerto en Barcelona y alrededores, Cataluña.",
    "image_url": ""
  },
  {
    "id": "port-vell",
    "name": "Port Vell",
    "region_id": "cat",
    "area_id": 2,
    "lat": 41.376,
    "lon": 2.187,
    "description": "Puerto en Barcelona y alrededores, Cataluña.",
    "image_url": ""
  },
  {
    "id": "puerto-balis",
    "name": "Puerto Balís",
    "region_id": "cat",
    "area_id": 3,
    "lat": 41.577,
    "lon": 2.552,
    "description": "Puerto en Maresme, Cataluña.",
    "image_url": ""
  },
  {
    "id": "puerto-de-aiguablava",
    "name": "Puerto de Aiguablava",
    "region_id": "cat",
    "area_id": 1,
    "lat": 41.933333,
    "lon": 3.216667,
    "description": "Puerto en Costa Brava, Cataluña.",
    "image_url": ""
  },
  {
    "id": "puerto-de-alcanar",
    "name": "Puerto de Alcanar",
    "region_id": "cat",
    "area_id": 5,
    "lat": 40.569797,
    "lon": 0.53764,
    "description": "Puerto en Terres de l’Ebre, Cataluña.",
    "image_url": ""
  },
  {
    "id": "puerto-de-arenys-de-mar",
    "name": "Puerto de Arenys de Mar",
    "region_id": "cat",
    "area_id": 3,
    "lat": 41.566667,
    "lon": 2.55,
    "description": "Puerto en Maresme, Cataluña.",
    "image_url": ""
  },
  {
    "id": "puerto-de-badalona",
    "name": "Puerto de Badalona",
    "region_id": "cat",
    "area_id": 2,
    "lat": 41.433889,
    "lon": 2.235278,
    "description": "Puerto en Barcelona y alrededores, Cataluña.",
    "image_url": ""
  },
  {
    "id": "puerto-de-blanes",
    "name": "Puerto de Blanes",
    "region_id": "cat",
    "area_id": 1,
    "lat": 41.666667,
    "lon": 2.783333,
    "description": "Puerto en Costa Brava, Cataluña.",
    "image_url": ""
  },
  {
    "id": "puerto-de-cala-canyelles",
    "name": "Puerto de Cala Canyelles",
    "region_id": "cat",
    "area_id": 1,
    "lat": 41.703611,
    "lon": 2.881111,
    "description": "Puerto en Costa Brava, Cataluña.",
    "image_url": ""
  },
  {
    "id": "puerto-de-calafat",
    "name": "Puerto de Calafat",
    "region_id": "cat",
    "area_id": 4,
    "lat": 40.930278,
    "lon": 0.821389,
    "description": "Puerto en Costa Daurada, Cataluña.",
    "image_url": ""
  },
  {
    "id": "puerto-de-cambrils",
    "name": "Puerto de Cambrils",
    "region_id": "cat",
    "area_id": 4,
    "lat": 41.05,
    "lon": 1.05,
    "description": "Puerto en Costa Daurada, Cataluña.",
    "image_url": ""
  },
  {
    "id": "puerto-de-colera",
    "name": "Puerto de Colera",
    "region_id": "cat",
    "area_id": 1,
    "lat": 42.403889,
    "lon": 3.158333,
    "description": "Puerto en Costa Brava, Cataluña.",
    "image_url": ""
  },
  {
    "id": "puerto-de-coma-ruga",
    "name": "Puerto de Coma-ruga",
    "region_id": "cat",
    "area_id": 4,
    "lat": 41.173333,
    "lon": 1.526111,
    "description": "Puerto en Costa Daurada, Cataluña.",
    "image_url": ""
  },
  {
    "id": "puerto-de-deltebre",
    "name": "Puerto de Deltebre",
    "region_id": "cat",
    "area_id": 5,
    "lat": 40.716667,
    "lon": 0.85,
    "description": "Puerto en Terres de l’Ebre, Cataluña.",
    "image_url": ""
  },
  {
    "id": "puerto-de-garraf",
    "name": "Puerto de Garraf",
    "region_id": "cat",
    "area_id": 2,
    "lat": 41.251667,
    "lon": 1.906389,
    "description": "Puerto en Barcelona y alrededores, Cataluña.",
    "image_url": ""
  },
  {
    "id": "puerto-de-lametlla-de-mar",
    "name": "Puerto de l'Ametlla de Mar",
    "region_id": "cat",
    "area_id": 5,
    "lat": 40.866667,
    "lon": 0.8,
    "description": "Puerto en Terres de l’Ebre, Cataluña.",
    "image_url": ""
  },
  {
    "id": "puerto-de-lampolla",
    "name": "Puerto de l'Ampolla",
    "region_id": "cat",
    "area_id": 5,
    "lat": 40.8,
    "lon": 0.683333,
    "description": "Puerto en Terres de l’Ebre, Cataluña.",
    "image_url": ""
  },
  {
    "id": "puerto-de-lescala",
    "name": "Puerto de l'Escala",
    "region_id": "cat",
    "area_id": 1,
    "lat": 42.125,
    "lon": 3.132,
    "description": "Puerto en Costa Brava, Cataluña.",
    "image_url": ""
  },
  {
    "id": "puerto-de-lestartit",
    "name": "Puerto de l'Estartit",
    "region_id": "cat",
    "area_id": 1,
    "lat": 42.053,
    "lon": 3.202,
    "description": "Puerto en Costa Brava, Cataluña.",
    "image_url": ""
  },
  {
    "id": "puerto-de-llafranc",
    "name": "Puerto de Llafranc",
    "region_id": "cat",
    "area_id": 1,
    "lat": 41.883333,
    "lon": 3.183333,
    "description": "Puerto en Costa Brava, Cataluña.",
    "image_url": ""
  },
  {
    "id": "puerto-de-llanca",
    "name": "Puerto de Llançà",
    "region_id": "cat",
    "area_id": 1,
    "lat": 42.366,
    "lon": 3.162,
    "description": "Puerto en Costa Brava, Cataluña.",
    "image_url": ""
  },
  {
    "id": "puerto-de-mataro",
    "name": "Puerto de Mataró",
    "region_id": "cat",
    "area_id": 3,
    "lat": 41.534,
    "lon": 2.453,
    "description": "Puerto en Maresme, Cataluña.",
    "image_url": ""
  },
  {
    "id": "puerto-de-palamos",
    "name": "Puerto de Palamós",
    "region_id": "cat",
    "area_id": 1,
    "lat": 41.848,
    "lon": 3.129,
    "description": "Puerto en Costa Brava, Cataluña.",
    "image_url": ""
  },
  {
    "id": "puerto-de-portbou",
    "name": "Puerto de Portbou",
    "region_id": "cat",
    "area_id": 1,
    "lat": 42.427,
    "lon": 3.159,
    "description": "Puerto en Costa Brava, Cataluña.",
    "image_url": ""
  },
  {
    "id": "puerto-de-premia-de-mar",
    "name": "Puerto de Premià de Mar",
    "region_id": "cat",
    "area_id": 3,
    "lat": 41.489,
    "lon": 2.357,
    "description": "Puerto en Maresme, Cataluña.",
    "image_url": ""
  },
  {
    "id": "puerto-de-roses",
    "name": "Puerto de Roses",
    "region_id": "cat",
    "area_id": 1,
    "lat": 42.263,
    "lon": 3.174,
    "description": "Puerto en Costa Brava, Cataluña.",
    "image_url": ""
  },
  {
    "id": "puerto-de-roda-de-bera",
    "name": "Puerto de Roda de Berà",
    "region_id": "cat",
    "area_id": 4,
    "lat": 41.183889,
    "lon": 1.451389,
    "description": "Puerto en Costa Daurada, Cataluña.",
    "image_url": ""
  },
  {
    "id": "puerto-de-salou",
    "name": "Puerto de Salou",
    "region_id": "cat",
    "area_id": 4,
    "lat": 41.066667,
    "lon": 1.133333,
    "description": "Puerto en Costa Daurada, Cataluña.",
    "image_url": ""
  },
  {
    "id": "puerto-de-sant-feliu-de-guixols",
    "name": "Puerto de Sant Feliu de Guíxols",
    "region_id": "cat",
    "area_id": 1,
    "lat": 41.766667,
    "lon": 3.016667,
    "description": "Puerto en Costa Brava, Cataluña.",
    "image_url": ""
  },
  {
    "id": "puerto-de-sant-jordi-dalfama",
    "name": "Puerto de Sant Jordi d'Alfama",
    "region_id": "cat",
    "area_id": 4,
    "lat": 40.886111,
    "lon": 0.787778,
    "description": "Puerto en Costa Daurada, Cataluña.",
    "image_url": ""
  },
  {
    "id": "puerto-de-segur-de-calafell",
    "name": "Puerto de Segur de Calafell",
    "region_id": "cat",
    "area_id": 4,
    "lat": 41.215278,
    "lon": 1.631944,
    "description": "Puerto en Costa Daurada, Cataluña.",
    "image_url": ""
  },
  {
    "id": "puerto-de-torredembarra",
    "name": "Puerto de Torredembarra",
    "region_id": "cat",
    "area_id": 4,
    "lat": 41.125,
    "lon": 1.4,
    "description": "Puerto en Costa Daurada, Cataluña.",
    "image_url": ""
  },
  {
    "id": "puerto-de-vallcarca",
    "name": "Puerto de Vallcarca",
    "region_id": "cat",
    "area_id": 2,
    "lat": 41.239167,
    "lon": 1.866944,
    "description": "Puerto en Barcelona y alrededores, Cataluña.",
    "image_url": ""
  },
  {
    "id": "puerto-de-vilanova-i-la-geltru",
    "name": "Puerto de Vilanova i la Geltrú",
    "region_id": "cat",
    "area_id": 2,
    "lat": 41.2,
    "lon": 1.716667,
    "description": "Puerto en Barcelona y alrededores, Cataluña.",
    "image_url": ""
  },
  {
    "id": "puerto-del-masnou",
    "name": "Puerto del Masnou",
    "region_id": "cat",
    "area_id": 3,
    "lat": 41.479,
    "lon": 2.318,
    "description": "Puerto en Maresme, Cataluña.",
    "image_url": ""
  },
  {
    "id": "puerto-del-port-de-la-selva",
    "name": "Puerto del Port de la Selva",
    "region_id": "cat",
    "area_id": 1,
    "lat": 42.336,
    "lon": 3.206,
    "description": "Puerto en Costa Brava, Cataluña.",
    "image_url": ""
  },
  {
    "id": "puerto-de-la-rapita",
    "name": "Puerto de la Ràpita",
    "region_id": "cat",
    "area_id": 5,
    "lat": 40.6,
    "lon": 0.6,
    "description": "Puerto en Terres de l’Ebre, Cataluña.",
    "image_url": ""
  },
  {
    "id": "puerto-de-aiguadolc",
    "name": "Puerto de Aiguadolç",
    "region_id": "cat",
    "area_id": 2,
    "lat": 41.236278,
    "lon": 1.823889,
    "description": "Puerto en Barcelona y alrededores, Cataluña.",
    "image_url": ""
  },
  {
    "id": "barcelona",
    "name": "Barcelona",
    "region_id": "cat",
    "area_id": 2,
    "lat": 41.346176,
    "lon": 2.168365,
    "description": "Puerto en Barcelona y alrededores, Cataluña.",
    "image_url": ""
  }
]